[{"name":"Pageflakes","category_code":"web","number_of_employees":20.0,"founded_year":2006.0,"city":"San Francisco","office":{"type":"Point","coordinates":[-122.414689,37.758113]},"state":"success","total_money_raised ($k)":4100.0,"money_state":"success"},{"name":"Kiva","category_code":"finance","number_of_employees":null,"founded_year":2005.0,"city":"San Francisco","office":{"type":"Point","coordinates":[-122.4147,37.762125]},"state":"success","total_money_raised ($k)":9000.0,"money_state":"success"},{"name":"Automattic","category_code":"web","number_of_employees":200.0,"founded_year":2005.0,"city":"San Francisco","office":{"type":"Point","coordinates":[-122.421344,37.744274]},"state":"success","total_money_raised ($k)":30600.0,"money_state":"success"},{"name":"Doppelganger","category_code":"web","number_of_employees":null,"founded_year":null,"city":"San Francisco","office":{"type":"Point","coordinates":[-122.413912,37.762162]},"state":"success","total_money_raised ($k)":11000.0,"money_state":"success"},{"name":"Mogad","category_code":"network_hosting","number_of_employees":2.0,"founded_year":2007.0,"city":"San Francisco","office":{"type":"Point","coordinates":[-122.421778,37.763652]},"state":"success","total_money_raised ($k)":500.0,"money_state":"success"},{"name":"Sprout","category_code":"advertising","number_of_employees":18.0,"founded_year":2008.0,"city":"San Francisco","office":{"type":"Point","coordinates":[-122.418137,37.755012]},"state":"success","total_money_raised ($k)":8300.0,"money_state":"success"},{"name":"Sutros","category_code":"games_video","number_of_employees":3.0,"founded_year":2008.0,"city":"San Francisco","office":{"type":"Point","coordinates":[-122.42087,37.756922]},"state":"success","total_money_raised ($k)":0.0,"money_state":"success2"},{"name":"Aardvark","category_code":"web","number_of_employees":30.0,"founded_year":2007.0,"city":"San Francisco","office":{"type":"Point","coordinates":[-122.415813,37.748676]},"state":"success","total_money_raised ($k)":6000.0,"money_state":"success"},{"name":"RateItAll","category_code":"web","number_of_employees":6.0,"founded_year":1999.0,"city":"San Francisco","office":{"type":"Point","coordinates":[-122.418137,37.755012]},"state":"success","total_money_raised ($k)":1400.0,"money_state":"success"},{"name":"Supercool School","category_code":"web","number_of_employees":3.0,"founded_year":2009.0,"city":"San Francisco","office":{"type":"Point","coordinates":[-122.416804,37.754332]},"state":"success","total_money_raised ($k)":100.0,"money_state":"success"},{"name":"Cucku","category_code":"enterprise","number_of_employees":null,"founded_year":2007.0,"city":"San Francisco","office":{"type":"Point","coordinates":[-122.41748,37.743454]},"state":"success","total_money_raised ($k)":0.0,"money_state":"success2"},{"name":"Fluther","category_code":"web","number_of_employees":3.0,"founded_year":2007.0,"city":"San Francisco","office":{"type":"Point","coordinates":[-122.418642,37.758062]},"state":"success","total_money_raised ($k)":600.0,"money_state":"success"},{"name":"Fluther","category_code":"web","number_of_employees":3.0,"founded_year":2007.0,"city":"San Francisco","office":{"type":"Point","coordinates":[-122.418642,37.758062]},"state":"success","total_money_raised ($k)":600.0,"money_state":"success"},{"name":"e-Clips","category_code":"advertising","number_of_employees":4.0,"founded_year":2007.0,"city":"San Francisco","office":{"type":"Point","coordinates":[-122.420572,37.761404]},"state":"success","total_money_raised ($k)":0.0,"money_state":"success2"},{"name":"OQO","category_code":"mobile","number_of_employees":null,"founded_year":2000.0,"city":"San Francisco","office":{"type":"Point","coordinates":[-122.415869,37.759117]},"state":"success","total_money_raised ($k)":39800.0,"money_state":"success"},{"name":"Qitera","category_code":"search","number_of_employees":10.0,"founded_year":2007.0,"city":"San Francisco","office":{"type":"Point","coordinates":[-122.4184108,37.7581148]},"state":"success","total_money_raised ($k)":0.0,"money_state":"success2"},{"name":"Snappr","category_code":"mobile","number_of_employees":0.0,"founded_year":2008.0,"city":"San Francisco","office":{"type":"Point","coordinates":[-122.414259,37.762718]},"state":"success","total_money_raised ($k)":0.0,"money_state":"success2"},{"name":"CrowdFlower","category_code":"enterprise","number_of_employees":49.0,"founded_year":2007.0,"city":"San Francisco","office":{"type":"Point","coordinates":[-122.4204782,37.7652755]},"state":"success","total_money_raised ($k)":13200.0,"money_state":"success"},{"name":"ClerkDogs","category_code":"other","number_of_employees":35.0,"founded_year":2007.0,"city":"San Francisco","office":{"type":"Point","coordinates":[-122.4184108,37.7581148]},"state":"success","total_money_raised ($k)":0.0,"money_state":"success2"},{"name":"PB Strategic Consultancy","category_code":"mobile","number_of_employees":5.0,"founded_year":1999.0,"city":"San Francisco","office":{"type":"Point","coordinates":[-122.4184108,37.7581148]},"state":"success","total_money_raised ($k)":0.0,"money_state":"success2"},{"name":"Jobnob","category_code":"search","number_of_employees":null,"founded_year":2008.0,"city":"San Francisco","office":{"type":"Point","coordinates":[-122.4219405,37.7440202]},"state":"success","total_money_raised ($k)":0.0,"money_state":"success2"},{"name":"TwtBks","category_code":"web","number_of_employees":3.0,"founded_year":2009.0,"city":"San Francisco","office":{"type":"Point","coordinates":[-122.4160008,37.7611016]},"state":"success","total_money_raised ($k)":25.0,"money_state":"success"}]