[{"category":"airport","name":"San Francisco International Airport","location":{"type":"Point","coordinates":[-122.3789554,37.6213129]},"latitude":37.6213129,"longitude":-122.3789554},{"category":"Starbucks","name":"Starbucks","location":{"type":"Point","coordinates":[-122.4042684,37.7928135]},"latitude":37.7928135,"longitude":-122.4042684},{"category":"Starbucks","name":"Starbucks","location":{"type":"Point","coordinates":[-122.38783,37.741198]},"latitude":37.741198,"longitude":-122.38783},{"category":"Starbucks","name":"Starbucks","location":{"type":"Point","coordinates":[-122.40385,37.78446]},"latitude":37.78446,"longitude":-122.40385},{"category":"Starbucks","name":"Starbucks","location":{"type":"Point","coordinates":[-122.406831,37.789348]},"latitude":37.789348,"longitude":-122.406831},{"category":"Starbucks","name":"Starbucks","location":{"type":"Point","coordinates":[-122.438964,37.74359]},"latitude":37.74359,"longitude":-122.438964},{"category":"Starbucks","name":"Starbucks","location":{"type":"Point","coordinates":[-122.409623,37.766884]},"latitude":37.766884,"longitude":-122.409623},{"category":"Starbucks","name":"Starbucks","location":{"type":"Point","coordinates":[-122.422065,37.790218]},"latitude":37.790218,"longitude":-122.422065},{"category":"Starbucks","name":"Starbucks","location":{"type":"Point","coordinates":[-122.431709,37.751341]},"latitude":37.751341,"longitude":-122.431709},{"category":"Starbucks","name":"Starbucks","location":{"type":"Point","coordinates":[-122.392268,37.791311]},"latitude":37.791311,"longitude":-122.392268},{"category":"Starbucks","name":"Starbucks","location":{"type":"Point","coordinates":[-122.409094,37.786145]},"latitude":37.786145,"longitude":-122.409094},{"category":"Starbucks","name":"Starbucks","location":{"type":"Point","coordinates":[-122.430395,37.797644]},"latitude":37.797644,"longitude":-122.430395},{"category":"Starbucks","name":"Starbucks","location":{"type":"Point","coordinates":[-122.40576,37.790431]},"latitude":37.790431,"longitude":-122.40576},{"category":"Starbucks","name":"Starbucks","location":{"type":"Point","coordinates":[-122.467331,37.739714]},"latitude":37.739714,"longitude":-122.467331},{"category":"Starbucks","name":"Starbucks","location":{"type":"Point","coordinates":[-122.431519,37.782738]},"latitude":37.782738,"longitude":-122.431519},{"category":"Starbucks","name":"Starbucks","location":{"type":"Point","coordinates":[-122.4563688,37.7641827]},"latitude":37.7641827,"longitude":-122.4563688},{"category":"Starbucks","name":"Starbucks","location":{"type":"Point","coordinates":[-122.41285,37.80842]},"latitude":37.80842,"longitude":-122.41285},{"category":"Starbucks","name":"Starbucks","location":{"type":"Point","coordinates":[-122.4034092,37.7884614]},"latitude":37.7884614,"longitude":-122.4034092},{"category":"Starbucks","name":"Starbucks","location":{"type":"Point","coordinates":[-122.4172872,37.7770432]},"latitude":37.7770432,"longitude":-122.4172872},{"category":"Starbucks","name":"Starbucks","location":{"type":"Point","coordinates":[-122.428353,37.769122]},"latitude":37.769122,"longitude":-122.428353},{"category":"Starbucks","name":"Starbucks","location":{"type":"Point","coordinates":[-122.402728,37.794632]},"latitude":37.794632,"longitude":-122.402728},{"category":"pub","name":"Rouge Night Club","location":{"type":"Point","coordinates":[-122.4220047,37.7961298]},"latitude":37.7961298,"longitude":-122.4220047},{"category":"pub","name":"Raven Bar","location":{"type":"Point","coordinates":[-122.4088611,37.7757722]},"latitude":37.7757722,"longitude":-122.4088611},{"category":"pub","name":"Monarch","location":{"type":"Point","coordinates":[-122.4085,37.7809861]},"latitude":37.7809861,"longitude":-122.4085},{"category":"pub","name":"OMG","location":{"type":"Point","coordinates":[-122.4094049,37.7816898]},"latitude":37.7816898,"longitude":-122.4094049},{"category":"pub","name":"Calle-11sf Nightclub","location":{"type":"Point","coordinates":[-122.414007,37.7715869]},"latitude":37.7715869,"longitude":-122.414007},{"category":"pub","name":"Latin American Club","location":{"type":"Point","coordinates":[-122.4206407,37.7554939]},"latitude":37.7554939,"longitude":-122.4206407},{"category":"pub","name":"Make-Out Room","location":{"type":"Point","coordinates":[-122.4193399,37.75526]},"latitude":37.75526,"longitude":-122.4193399},{"category":"pub","name":"El Valenciano","location":{"type":"Point","coordinates":[-122.420771,37.754529]},"latitude":37.754529,"longitude":-122.420771},{"category":"pub","name":"El Toro Night Club","location":{"type":"Point","coordinates":[-122.4052746,37.7306713]},"latitude":37.7306713,"longitude":-122.4052746},{"category":"pub","name":"OASIS","location":{"type":"Point","coordinates":[-122.4144444,37.7719444]},"latitude":37.7719444,"longitude":-122.4144444},{"category":"pub","name":"F8 Nightclub & Bar","location":{"type":"Point","coordinates":[-122.4100374,37.775266]},"latitude":37.775266,"longitude":-122.4100374},{"category":"pub","name":"Space 550","location":{"type":"Point","coordinates":[-122.404738,37.7398613]},"latitude":37.7398613,"longitude":-122.404738},{"category":"pub","name":"The Chapel","location":{"type":"Point","coordinates":[-122.4212979,37.7604864]},"latitude":37.7604864,"longitude":-122.4212979},{"category":"pub","name":"The Holy Cow","location":{"type":"Point","coordinates":[-122.4143364,37.7713726]},"latitude":37.7713726,"longitude":-122.4143364},{"category":"pub","name":"Audio Nightclub","location":{"type":"Point","coordinates":[-122.413792,37.771362]},"latitude":37.771362,"longitude":-122.413792},{"category":"pub","name":"San Francisco Badlands","location":{"type":"Point","coordinates":[-122.4355306,37.7607028]},"latitude":37.7607028,"longitude":-122.4355306},{"category":"pub","name":"Lush Lounge","location":{"type":"Point","coordinates":[-122.4204128,37.7881262]},"latitude":37.7881262,"longitude":-122.4204128},{"category":"pub","name":"Love + Propaganda","location":{"type":"Point","coordinates":[-122.4064201,37.7890233]},"latitude":37.7890233,"longitude":-122.4064201},{"category":"pub","name":"Harlot","location":{"type":"Point","coordinates":[-122.3981969,37.7885694]},"latitude":37.7885694,"longitude":-122.3981969},{"category":"pub","name":"SWIG","location":{"type":"Point","coordinates":[-122.4125,37.7866667]},"latitude":37.7866667,"longitude":-122.4125},{"category":"vegan rest","name":"Loving Hut Vegan Restaurant","location":{"type":"Point","coordinates":[-122.4636464,37.764364]},"latitude":37.764364,"longitude":-122.4636464},{"category":"vegan rest","name":"Indochine Vegan","location":{"type":"Point","coordinates":[-122.4221595,37.7646261]},"latitude":37.7646261,"longitude":-122.4221595},{"category":"vegan rest","name":"VeganBurg San Francisco","location":{"type":"Point","coordinates":[-122.4464842,37.7702039]},"latitude":37.7702039,"longitude":-122.4464842},{"category":"vegan rest","name":"Shizen Vegan Sushi Bar and Izakaya","location":{"type":"Point","coordinates":[-122.4216815,37.7683125]},"latitude":37.7683125,"longitude":-122.4216815},{"category":"vegan rest","name":"Vegan Picnic","location":{"type":"Point","coordinates":[-122.4317498,37.7973935]},"latitude":37.7973935,"longitude":-122.4317498}]